COUNTRY,ECF_Code,ECF_Name,Status,Beds_Open,Open_Date,Partner,Latitude,Longitude,LabPresent
Guinea,GIN_0011,Macenta,Open,70,2014-12-05T00:00:00,FRENCH RED CROSS,8.541,-9.471,Yes
Guinea,GIN_0010,Gueckedou,Open,100,2014-12-05T00:00:00,MSF,8.562,-10.133,Yes
Guinea,GIN_0001,Conakry Donka Hospital,Open,70,2014-12-05T00:00:00,MSF,9.535,-13.683,Yes
Guinea,GIN_0003,Coyah,Under Construction,0,2014-12-01T00:00:00,Cuba?,9.73,-13.421,No
Guinea,GIN_0009,Beyla,Under Construction,0,2014-12-17T00:00:00,WAHA,8.69,-8.648,No
Guinea,GIN_0007,Nzerekore,Open,0,2014-12-01T00:00:00,ALIMA,7.756,-8.82,No
Guinea,GIN_0054,Kerouane,Under Construction,0,2014-12-17T00:00:00,French Red Cross,9.2741,-9.00326,No
Guinea,GIN_0058,Wonkifong,Under Construction,0,2014-12-22T00:00:00,,9.730112,-13.42081,No
Guinea,GIN_0059,Kankan,Under Construction,0,,MSF,10.383,-9.305,No
Liberia,LBR_0001,Barclayville,Under Construction,0,2014-12-25T00:00:00,PAE/Aspen,4.67654149,-8.23489495,No
Liberia,LBR_0002,Bopulu,Under Construction,0,2014-12-25T00:00:00,PAE/Aspen,7.06390178,-10.4906908,No
Liberia,LBR_0003,Buchanan,Open,0,2014-12-06T00:00:00,IOM,5.88810337,-10.03322255,No
Liberia,LBR_0026,Tappita,Under Construction,0,2014-12-14T00:00:00,Heart to Heart/PAE,6.4899591,-8.85999291,No
Liberia,LBR_0010,Greenville,Under Construction,0,2004-12-10T00:00:00,PAE/MSB,5.498,-8.66,No
Liberia,LBR_0011,Harper,Under Construction,0,2014-12-20T00:00:00,Partners in Health/PAE,4.39341051,-7.69252002,No
Liberia,LBR_0006,Fish Town,Under Construction,0,2014-12-14T00:00:00,ARC,5.19639,-7.876,No
Liberia,LBR_0025,Sinje,Open,50,2014-12-06T00:00:00,IOM,6.81605455,-11.13382627,No
Liberia,LBR_0030,Zwedru,Open,0,2015-01-12T00:00:00,Partners in Health/PAE,6.06495705,-8.1380602,No
Liberia,LBR_0028,Voinjama,Under Construction,0,2014-12-14T00:00:00,WAHA/GOAL/PAE/Aspen,8.41658363,-9.74996812,No
Liberia,LBR_0012,JFK hospital,Closed,0,,MoH/WHO,6.28723,-10.77325,No
Liberia,LBR_0021,SKD 1,Under Construction,0,2014-12-15T00:00:00,IRC,6.25675606,-10.70045594,No
Liberia,LBR_0022,SKD 2,Open,50,2014-12-22T00:00:00,German RC/German Armed Forces,6.25744595,-10.7005257,No
Liberia,LBR_0017,Congo Town 2 (old MoD 2),Closed,0,,MBS Sweden,6.268152,-10.731191,No
Liberia,LBR_0014,Kakata II,Closed,0,2014-12-02T00:00:00,,6.53993904,-10.34222136,No
Liberia,LBR_0024,Robertsport,Closed,0,,,6.75201231,-11.36470465,No
Liberia,LBR_0048,Ganta,Under Construction,0,2014-12-13T00:00:00,Nimba CHT / PCI,7.2375,-8.9814,No
Liberia,LBR_0019,ELWA 3,Open,60,2014-12-02T00:00:00,MSF Brussels,6.24443999,-10.70028,No
Liberia,LBR_0018,ELWA 2,Open,100,2014-12-02T00:00:00,MoH/WHO,6.23965,-10.696,No
Liberia,LBR_0110,SKD 3 - Chinese,Open,100,2014-12-02T00:00:00,Chinese FMT,6.25800905,-10.70336322,No
Liberia,LBR_0005,Firestone,Open,31,2014-12-09T00:00:00,Firestone,6.35305998,-10.46971999,No
Liberia,LBR_0027,Tubmanburg,Open,100,2014-12-09T00:00:00,IOM,6.86875073,-10.82040988,No
Liberia,LBR_0023,Unity Conference Centre,Open,50,2014-12-09T00:00:00,MoH,6.38903522,-10.79283257,No
Liberia,LBR_0009,Suakoko / Gbarnga,Open,71,2014-12-09T00:00:00,IMC,7.004669,-9.555144,No
Liberia,LBR_0020,Island Clinic,Open,150,2014-12-09T00:00:00,MoH/WHO/AU,6.3843716,-10.7871135,No
Liberia,LBR_0015,Monrovia Medical Unit,Open,22,2014-12-09T00:00:00,USPHS,6.313333,-10.801389,No
Liberia,LBR_0007,Foya,Closed,0,2014-12-09T00:00:00,MSF,8.3789113,-10.20575665,No
Liberia,LBR_0016,Congo Town 1 (old MoD),Open,40,2014-12-02T00:00:00,AU/Cuban FMT/MoH,6.27028,-10.73417,No
Liberia,LBR_0013,Kakata 1,Open,50,2014-12-02T00:00:00,IMC,6.52752356,-10.36038423,No
Liberia,LBR_0008,Ganta United Methodist Hospital,Open,36,2014-12-18T00:00:00,Methodist Church / PCI,7.23732659,-8.98132287,No
Liberia,LBR_0116,Gbediah Town,Under Construction,0,2014-12-25T00:00:00,PAE/Aspen,5.483,-9.588,No
Liberia,LBR_0119,Zorzor,Planned,0,2014-12-19T00:00:00,PAE / Aspend,7.776,-9.423,No
Sierra Leone,SLE_0001,Goderich,Open,32,2014-12-14T00:00:00,EMERGENCY,8.424321,-13.280407,Yes
Sierra Leone,SLE_0002,Hastings,Open,10,2014-12-17T00:00:00,RSLAF/KINGS/EU,8.382142,-13.140652,Yes
Sierra Leone,SLE_0004,Police Training Sch-Hastings 1,Open,20,,MOH / RSLAF,8.382705,-13.125851,No
Sierra Leone,SLE_0005,Kerry Town STC,Open,7,,Save the Children/PHE,8.257095,-13.086371,Yes
Sierra Leone,SLE_0006,Port Loko ETU,Open,20,2014-12-14T00:00:00,GOAL/PHE,8.77665,-12.76239,Yes
Sierra Leone,SLE_0007,Lunsar ETU,Open,20,2014-12-01T00:00:00,IMC,8.69854,-12.57656,No
Sierra Leone,SLE_0008,Moyamba ETU,Open,30,2014-12-17T00:00:00,MDM/DTRA,8.1778929,-12.41256334,Yes
Sierra Leone,SLE_0010,"China-SL Friendship Hospital ETU, Jui",Open,5,,Chinese CDC,8.38686091,-13.14954849,Yes
Sierra Leone,SLE_0012,Kailahun MSF,Closed,0,,MSF/PHA-Canada,0,0,No
Sierra Leone,SLE_0013,Rural Kenema Field Hospital (IFRC),Open,12,,IFRC,8.005088,-11.1156,No
Sierra Leone,SLE_0014,Dorma ETU - Koidu Town,Open,25,2015-01-15T00:00:00,Well Body/ PIH,8.630038,-10.958743,Yes
Sierra Leone,SLE_0015,Bo Town MSF,Open,104,,CDC,7.94104,-11.6697,Yes
Sierra Leone,SLE_0009,Makeni TU,Open,100,2014-12-08T00:00:00,IMC/PHE,8.7985682,-12.03104834,Yes
Sierra Leone,SLE_0022,Police Training Sch-Hastings 2,Open,50,2014-12-19T00:00:00,MOH/RSLAF,8.3827045,-13.12585093,No
Sierra Leone,SLE_0023,Maforki ETU,Open,44,,MoH / Plan,8.74984,-12.7724,No
Sierra Leone,SLE_0020,Magbenteh Hospital,Closed,0,2014-11-15T00:00:00,MoH/Addax/AU/WHO,0,0,No
Sierra Leone,SLE_0109,34 Military Hospital,Open,10,2014-12-01T00:00:00,British Medical Team,8.464217,-13.261242,No
Sierra Leone,SLE_0110,Magbankor MSF ETU,Open,50,2014-12-15T00:00:00,MSF/OCNML,8.73617,-11.92354,Yes
Sierra Leone,SLE_0146,MSF POW School (ETU),Closed,15,,MSF/EU,0,0,Yes
Sierra Leone,SLE_0147,ADRA,Open,10,2014-12-14T00:00:00,Cuban Medical Brigade,8.334213,-13.07302,No